City_ID,City,Country,Max Temp,Current Description,Lat,Lng,Hotel Name
3,Port Blair,IN,77.99,few clouds,11.6667,92.75,"Welcomhotel By ITC Hotels, Bay Island, Port Blair"
8,Carnarvon,AU,77.07,clear sky,-24.8667,113.6333,Hospitality Carnarvon
12,San Cristobal,VE,75.38,broken clouds,7.7669,-72.225,Posada Villaven C.A.
17,Kapaa,US,79.12,scattered clouds,22.0752,-159.319,Sheraton Kauai Coconut Beach Resort
22,Dondo,MZ,76.51,clear sky,-19.6094,34.7431,Arco Iris
23,Soyo,AO,78.42,overcast clouds,-6.1349,12.3689,Hotel Mpampa
32,Iracoubo,GF,77.47,light rain,5.4802,-53.2011,Le Gîte d’Iracoubo
44,Morant Bay,JM,82.02,scattered clouds,17.8815,-76.4093,Whispering Bamboo Cove Resort
45,Isangel,VU,84.31,broken clouds,-19.55,169.2667,Tanna Lodge
46,Rikitea,PF,76.69,overcast clouds,-23.1203,-134.9692,People ThankYou
50,Kloulklubed,PW,82.9,overcast clouds,7.0419,134.2556,Storyboard Beach Resort
51,Atuona,PF,78.66,clear sky,-9.8,-139.0333,Villa Enata
53,Lazaro Cardenas,MX,79.34,broken clouds,17.9583,-102.2,quinta antigua
55,Omboue,GA,76.35,light rain,-1.5746,9.2618,Hotel Olako
56,Yaring,TH,75.29,broken clouds,6.8662,101.3689,สถานที่จัดงานแต่ง SOFEE & DORN
57,Innisfail,AU,88.88,scattered clouds,-17.5333,146.0333,Moondarra Motel
58,Santa Fe,AR,79.0,broken clouds,-31.6333,-60.7,Conquistador Hotel
64,Geraldton,AU,76.12,clear sky,-28.7667,114.6,Broadwater Mariner Resort
66,Alofi,NU,80.49,light rain,-19.0595,-169.9187,Taloa Heights
67,Cabedelo,BR,79.47,broken clouds,-6.9811,-34.8339,Hotel Pigalle
72,Narrabri,AU,77.52,broken clouds,-30.3167,149.7833,Crossroads Hotel
73,Saint-Pierre,RE,76.64,clear sky,-21.3393,55.4781,Lindsey Hôtel
74,Mahebourg,MU,78.26,light rain,-20.4081,57.7,Shandrani Beachcomber Resort & Spa
75,Hobyo,SO,78.42,few clouds,5.3505,48.5268,Halane Hotel and Restaurent
78,Namatanai,PG,84.94,overcast clouds,-3.6667,152.4333,Seagulls Inn Namatani
82,Beira,MZ,77.09,clear sky,-19.8436,34.8389,Beira Terrace Hotel
85,Hithadhoo,MV,81.28,overcast clouds,-0.6,73.0833,Scoop Guest House
86,Tawau,MY,77.13,overcast clouds,4.2498,117.8871,Shervinton Executive Boutique Hotel
96,Saint-Philippe,RE,76.55,scattered clouds,-21.3585,55.7679,"Chambres d'hôte ""La Trinité"""
98,Salalah,OM,75.29,clear sky,17.0151,54.0924,"HAMDAN PLAZA HOTEL SALALAH, an HTG Hotel"
116,Arraial Do Cabo,BR,75.16,few clouds,-22.9661,-42.0278,Pousada Porto Praia
117,Balabac,PH,82.15,broken clouds,7.9868,117.0645,Sing and Swing Lodge
124,Sinnamary,GF,77.49,overcast clouds,5.3833,-52.95,ALETHEIA Appartement Sinnamary
129,Faanui,PF,81.39,broken clouds,-16.4833,-151.75,Bora-Bora Pearl Beach Resort & Spa
131,Bambous Virieux,MU,78.22,light rain,-20.3428,57.7575,Casa Tia Villa
132,Kavieng,PG,83.28,moderate rain,-2.5744,150.7967,Nusa Island Retreat
134,General Roca,AR,84.6,clear sky,-39.0333,-67.5833,Hotel y Casino del Río General Roca
136,Urucara,BR,77.77,broken clouds,-2.5364,-57.76,Pousada Maria Bonita
138,Buchanan,LR,75.16,broken clouds,5.8808,-10.0467,Kamaneahn Hotel Inc
141,Amambai,BR,77.9,few clouds,-23.1042,-55.2258,Keren Hotel
144,Cap Malheureux,MU,78.48,few clouds,-19.9842,57.6142,Pereybere Hotel & Spa
145,Avarua,CK,82.45,light rain,-21.2078,-159.775,Paradise Inn
146,Vaini,TO,84.36,scattered clouds,-21.2,-175.2,Keleti Beach Resort
151,Belmonte,BR,77.5,clear sky,-15.8631,-38.8828,Pousada Monte Carmelo O Pão
155,Camocim,BR,81.48,broken clouds,-2.9022,-40.8411,Ilha Praia Hotel
165,Alice Springs,AU,78.35,clear sky,-23.7,133.8833,Desert Palms Alice Springs
168,Porto Novo,BJ,84.02,overcast clouds,6.4965,2.6036,Tour Eiffel Hotel Benin
169,Sao Jose Da Coroa Grande,BR,77.77,broken clouds,-8.8978,-35.1478,Crôa Mares Hotel
176,Luanda,AO,80.6,light rain,-8.8368,13.2343,Hotel Fórum
182,Sabang,ID,80.92,overcast clouds,5.8933,95.3214,Hotel Citra
183,Mount Isa,AU,78.57,overcast clouds,-20.7333,139.5,ibis Styles Mt Isa Verona
186,Meulaboh,ID,76.33,overcast clouds,4.1363,96.1285,Kost Pria
189,Port Moresby,PG,81.82,broken clouds,-9.4431,147.1797,Lamana Hotel (Port Moresby)
193,Butaritari,KI,80.65,moderate rain,3.0707,172.7902,Isles Sunset Lodge
198,Velingara,SN,78.13,broken clouds,13.15,-14.1167,Hotel Najla
204,Honiara,SB,82.94,light rain,-9.4333,159.95,Heritage Park Hotel
205,Bowen,AU,84.42,few clouds,-20.0167,148.2333,Castle Motor Lodge Motel
208,Calabozo,VE,85.23,scattered clouds,8.9242,-67.4293,Hotel Giardini
215,Mahajanga,MG,78.82,few clouds,-15.7167,46.3167,Restaurant Greedy Coco Lodge Majunga
223,Ahipara,NZ,75.34,broken clouds,-35.1667,173.1667,Ahipara Holiday Park
227,Mayumba,GA,78.19,light rain,-3.432,10.6554,LIKWALE LODGE
234,Gigmoto,PH,78.06,overcast clouds,13.7796,124.39,Cj's Travellers Inn
238,Cabo San Lucas,MX,80.51,broken clouds,22.8909,-109.9124,Hotel Tesoro Los Cabos
239,Muriwai Beach,NZ,76.42,broken clouds,-36.8167,174.45,Coast Retreat Muriwai - Golf and Surf Holiday
242,Lakes Entrance,AU,75.16,overcast clouds,-37.8811,147.981,The Esplanade Resort & Spa
244,Vila Velha,BR,78.75,scattered clouds,-20.3297,-40.2925,Quality Suites Vila Velha
245,Emerald,AU,80.74,scattered clouds,-23.5333,148.1667,The Irish Village
247,Tecoanapa,MX,80.56,clear sky,16.5167,-98.75,Hotel Manglares
248,Lorengau,PG,86.94,broken clouds,-2.0226,147.2712,Lorengau Harbourside Hotel
250,Centralina,BR,76.95,broken clouds,-18.5839,-49.1994,MM Plaza Hotel
251,Batticaloa,LK,77.23,clear sky,7.7102,81.6924,Grand Star Guest House
256,Vao,NC,76.37,overcast clouds,-22.6667,167.4833,Hotel Kou-Bugny
264,Sola,VU,83.07,broken clouds,-13.8833,167.55,Leumerus Bungalows
269,Mapastepec,MX,77.85,clear sky,15.4333,-92.9,Hotel San Carlos
270,Malibu,US,76.1,clear sky,34.005,-118.8101,Malibu Country Inn
271,Manta,EC,76.78,broken clouds,-0.95,-80.7333,Balandra Hotel
272,Lompoc,US,77.77,clear sky,34.6391,-120.4579,"Holiday Inn Express Lompoc, an IHG Hotel"
273,Cururupu,BR,77.05,few clouds,-1.8283,-44.8683,POUSADA TRAVÉS'CIA
275,Aldama,MX,81.5,scattered clouds,22.9167,-98.0667,CASA CANYE
277,Cantanhede,BR,76.84,broken clouds,-3.6333,-44.3767,HOTEL FE EM DEUS
279,Agua Dulce,MX,75.42,scattered clouds,18.1333,-94.1333,Hotel Victoria
281,Buala,SB,78.84,light rain,-8.145,159.5921,Maringe Lagoon Lodge
284,Coahuayana,MX,79.14,overcast clouds,18.7333,-103.6833,El rranchito michuacan de ocampos
285,Kieta,PG,84.61,overcast clouds,-6.2167,155.6333,Uruna Bay Retreat
292,Pailitas,CO,78.26,overcast clouds,8.9565,-73.6255,HOTEL JECENTER
294,Nhulunbuy,AU,84.81,light rain,-12.2333,136.7667,East Arnhem Real Estate
295,Terenos,BR,83.91,clear sky,-20.4422,-54.8603,Rancho Pitzer
300,Vanimo,PG,86.41,broken clouds,-2.6741,141.3028,Vahmoneh Lodge Vanimo
302,Rioja,AR,75.4,broken clouds,-29.4111,-66.8507,Hotel Libertador
306,Gawler,AU,79.61,scattered clouds,-34.6,138.7333,Eagle Foundry Bed & Breakfast
307,Boyolangu,ID,76.28,light rain,-8.1181,111.8935,Yos ega cv
308,Sumbe,AO,77.31,broken clouds,-11.2061,13.8437,Hotel Ritz Sumbe
321,Soto La Marina,MX,78.78,broken clouds,23.7667,-98.2167,Hotel Chicago
330,Noumea,NC,87.78,overcast clouds,-22.2763,166.4572,Hôtel Le Lagon
341,Inhambane,MZ,75.79,clear sky,-23.865,35.3833,Oceano
343,Coihueco,CL,92.14,clear sky,-36.6167,-71.8333,Frutillares Centro Coihueco
348,Carmen,MX,82.44,clear sky,18.6333,-91.8333,Hotel Lossandes
354,Sibolga,ID,75.83,broken clouds,1.7427,98.7792,Hotel Syariah CN Darussalam
355,Kununurra,AU,78.78,light rain,-15.7667,128.7333,Hotel Kununurra
359,Alibag,IN,75.27,clear sky,18.6411,72.8792,"Radisson Blu Resort & Spa - Alibaug, India"
360,Lucea,JM,80.46,broken clouds,18.451,-78.1736,Grand Palladium Jamaica Resort & Spa
371,Ugoofaaru,MV,82.2,scattered clouds,5.6667,73.0,Ungoofaaru Inn
373,Bubaque,GW,81.5,overcast clouds,11.2833,-15.8333,"Casa Dora, Bubaque"
374,Tevaitoa,PF,81.27,broken clouds,-16.7833,-151.5,Hôtel Raiatea Lodge
378,Pocone,BR,77.29,moderate rain,-16.2567,-56.6228,Hotel e Churrascaria Pantaneira
381,Byron Bay,AU,81.05,broken clouds,-28.65,153.6167,Backpackers Inn
391,Cayenne,GF,77.09,broken clouds,4.9333,-52.3333,Hôtel Le Dronmi
393,Kudat,MY,77.29,few clouds,6.8837,116.8477,Dream Garden Hotel
395,Kahului,US,76.84,moderate rain,20.8947,-156.47,Maui Seaside Hotel
398,Bengkulu,ID,76.14,overcast clouds,-3.8004,102.2655,Grage Hotel Bengkulu
399,Takoradi,GH,80.19,scattered clouds,4.8845,-1.7554,Raybow International Hotel
406,Pundaguitan,PH,80.96,overcast clouds,6.3711,126.1689,Leonardo Family Beach House 1
408,Lethem,GY,80.42,overcast clouds,3.3803,-59.7968,Savannah Inn
410,Souillac,MU,78.37,scattered clouds,-20.5167,57.5167,Shanti Maurice Resort & Spa
412,Tautira,PF,86.02,light rain,-17.7333,-149.15,Pension Oaoa
413,Georgetown,MY,77.9,few clouds,5.4112,100.3354,Cititel Penang
415,Sinjai,ID,77.2,overcast clouds,-5.1241,120.253,Wisma Sandika
416,Santiago,CL,85.44,clear sky,-33.4569,-70.6483,Che Lagarto Hostel Santiago
430,Kirakira,SB,81.81,overcast clouds,-10.4544,161.9205,SanBiz Lodge
431,Ransang,PH,79.65,few clouds,8.9603,117.5828,Black and Crystal Sand Campsite
433,Taganak,PH,77.14,broken clouds,6.0833,118.3,Taganak
435,Grand Gaube,MU,78.39,few clouds,-20.0064,57.6608,Veranda Paul et Virginie Hotel & Spa
442,Port Keats,AU,88.03,light rain,-14.25,129.55,TDC Village (Hundred Man Camp)
454,Valdivia,CL,77.09,clear sky,-39.8142,-73.2459,Hostal Entre Rios
455,Ixtapa,MX,81.23,overcast clouds,20.7,-105.2,Hotel Plaza Providencia
462,Dingle,PH,77.14,scattered clouds,10.9995,122.6711,SEGAYA PROPERTY
464,Roebourne,AU,94.51,scattered clouds,-20.7833,117.1333,Latitude20 Roebourne Village
469,Maceio,BR,76.44,broken clouds,-9.6658,-35.7353,Poutur Pousada
472,La Asuncion,VE,80.33,scattered clouds,11.0333,-63.8628,Colinas de Matasiete
473,Nanakuli,US,75.04,light rain,21.3906,-158.1547,Camp Pālehua
474,Mitsamiouli,KM,80.73,few clouds,-11.3847,43.2844,Foyer ADM
479,Kitcharao,PH,78.64,light rain,9.455,125.5731,Eezy't
490,Acarau,BR,81.28,scattered clouds,-2.8856,-40.12,castelo pizzaria
491,Kudahuvadhoo,MV,81.5,broken clouds,2.6708,72.8944,Niyama Private Islands Maldives
497,Lakatoro,VU,84.24,few clouds,-16.0999,167.4164,Lakatoro Palm Lodge
499,Coolum Beach,AU,79.11,broken clouds,-26.5333,153.1,Palmer Coolum Resort
500,Broken Hill,AU,76.71,broken clouds,-31.95,141.4333,Royal Exchange Hotel
506,Puerto Ayacucho,VE,85.78,overcast clouds,5.6639,-67.6236,Posada Turistica Manapiare
512,Cockburn Town,TC,80.29,broken clouds,21.4612,-71.1419,Osprey Beach Hotel
519,Urupes,BR,81.73,broken clouds,-21.2017,-49.29,Romera
520,Jalingo,NG,79.23,overcast clouds,8.8833,11.3667,Debright Motel
527,Trincomalee,LK,79.43,clear sky,8.5711,81.2335,Welcombe Hotel
530,Axim,GH,79.81,few clouds,4.8699,-2.2405,Axim Beach Resort And Spa
532,Tambulig,PH,79.86,overcast clouds,8.0702,123.5348,Calolot Mountain Resort
537,Lokoja,NG,80.13,broken clouds,7.8024,6.743,Hotel Charvid
539,Karratha,AU,91.81,moderate rain,-20.7377,116.8463,ibis Styles Karratha
543,Mogadishu,SO,78.91,scattered clouds,2.0371,45.3438,Hotel Juba
559,Sao Filipe,CV,75.72,broken clouds,14.8961,-24.4956,Hotel Xaguate
560,Terra Santa,BR,79.23,broken clouds,-2.1042,-56.4869,Hotel Sarah
563,Tual,ID,83.1,moderate rain,-5.6667,132.75,Grand Vilia Hotel
564,Ambon,ID,84.34,scattered clouds,-3.6954,128.1814,Swiss-Belhotel Ambon
568,Pemangkat,ID,80.98,light rain,1.1667,108.9667,Ramah Kost KITA
572,San Fernando,PH,75.15,overcast clouds,15.0286,120.6898,Maharlika Hostel
573,Charters Towers,AU,85.75,few clouds,-20.1,146.2667,Cattleman's Rest Motor Inn
577,Moerai,PF,78.55,broken clouds,-22.4333,-151.3333,Le Manotel
578,Bathsheba,BB,81.21,scattered clouds,13.2167,-59.5167,Atlantis Hotel
584,San Policarpo,PH,80.01,broken clouds,12.1791,125.5072,Agapita M. Nicart
590,Mackay,AU,87.67,scattered clouds,-21.15,149.2,International Lodge Motel
595,Port-Gentil,GA,80.56,thunderstorm with light rain,-0.7193,8.7815,Fengshui Residence
598,Wad Madani,SD,77.79,clear sky,14.4012,33.5199,فندق يوغسلافيا
600,Key West,US,75.99,broken clouds,24.5557,-81.7826,Fairfield Inn & Suites by Marriott Key West
608,Sulangan,PH,80.92,scattered clouds,11.1373,123.7228,Maia's Beach Resort
612,Acapulco,MX,79.88,clear sky,16.8634,-99.8901,HS Hotsson Smart Acapulco
616,Richards Bay,ZA,77.5,overcast clouds,-28.783,32.0377,BON Hotel Waterfront Richards Bay
617,Galesong,ID,75.22,overcast clouds,-5.3166,119.3661,Sapriadi Appy
618,Neuquen,AR,84.09,clear sky,-38.9516,-68.0591,Hotel del Comahue
619,Kailua,US,75.07,light rain,21.4022,-157.7394,Sheffield House Bed & Breakfast
621,Pangascasan,PH,75.25,overcast clouds,16.1169,120.0866,Masamirey Cove Resort
627,Wairoa,NZ,80.55,overcast clouds,-39.0333,177.3667,Riverside Motor Camp
632,Mareeba,AU,87.48,clear sky,-17.0,145.4333,Trinity Plains Tourist Park
635,Nouakchott,MR,76.93,overcast clouds,18.0858,-15.9785,HOTEL IMAN
636,San Juan,AR,81.07,scattered clouds,-31.5375,-68.5364,Hotel Provincial
643,Ternate,ID,82.26,overcast clouds,0.8,127.4,Sahid Bela Ternate Hotel
644,Coracao De Jesus,BR,77.72,few clouds,-16.6853,-44.365,Hotel Neves
648,Neiafu,TO,81.28,light rain,-18.65,-173.9833,Mystic Sands Beachfront Accommodation
649,Auki,SB,79.27,moderate rain,-8.7676,160.7034,Auki Motel
656,Salawagan,PH,76.41,overcast clouds,7.7053,125.115,Violeta B. Cardona
657,Sao Joao Da Barra,BR,75.49,scattered clouds,-21.6403,-41.0511,Pousada Porto De Canoas
696,Tequila,MX,77.97,overcast clouds,20.8833,-103.8333,Hotel La Rienda Mision Tequillan
701,Mandera,KE,81.07,broken clouds,3.9366,41.867,Mwalimu Guest mandera
717,Fare,PF,81.0,broken clouds,-16.7,-151.0167,Maitai Lapita Village Huahine
720,Batuan,PH,75.29,scattered clouds,9.7808,124.1484,Villa Cresenciana
722,Princeton,US,75.99,broken clouds,25.5384,-80.4089,American Best Inn
731,Iralaya,HN,80.69,few clouds,15.0,-83.2333,Iglesia morava renovada
735,Basco,PH,75.6,broken clouds,20.4487,121.9702,Nathaniel's Lodge
740,Carora,VE,76.37,broken clouds,10.1755,-70.0827,Hotel Irpinia
756,Progreso,MX,75.72,clear sky,21.2833,-89.6667,Playa Linda Hotel
758,Bang Pakong,TH,76.95,scattered clouds,13.543,100.9933,PJ PLACE
766,Gboko,NG,79.93,overcast clouds,7.3179,8.9951,Mavillah Apartment and Suites
769,Formosa,AR,84.18,clear sky,-26.1775,-58.1781,Hotel Portal del Sol
770,Oussouye,SN,75.29,broken clouds,12.485,-16.5469,Auberge du Routard
776,Anito,PH,78.58,broken clouds,12.4497,125.2886,FELIPA LAODENIO PROPERTY
781,Isla Mujeres,MX,78.17,scattered clouds,21.2311,-86.731,Hotel La Joya Isla Mujeres
788,Hambantota,LK,77.09,scattered clouds,6.1241,81.1185,Bungalow 63
797,Okrika,NG,79.29,light rain,4.7416,7.0849,ayo mutiaru f
804,Mildura,AU,76.06,broken clouds,-34.2,142.15,Mercure Hotel Mildura
810,Kupang,ID,81.18,scattered clouds,-10.1667,123.5833,Hotel On The Rock by Prasanthi
812,Chake Chake,TZ,76.3,light rain,-5.2459,39.7666,Hotel Archipelago
814,Maumere,ID,81.77,overcast clouds,-8.6199,122.2111,Sylvia Hotel
817,Itarema,BR,81.14,scattered clouds,-2.9248,-39.9167,"Sea Lounge! Bar, Club & Restaurant"
819,Poum,NC,80.91,few clouds,-20.2333,164.0167,Gîte kajeon
828,Puerto Colombia,CO,81.54,broken clouds,10.9878,-74.9547,Hotel El Emigrante
829,Kattivakkam,IN,80.69,clear sky,13.2167,80.3167,Euronova Freezer
830,Les Cayes,HT,76.8,scattered clouds,18.2,-73.75,Villa Orphee
833,Bela Vista,BR,78.06,scattered clouds,-22.1089,-56.5211,Bella Vista Palace Hotel
840,San Patricio,US,77.54,overcast clouds,28.017,-97.5169,"Motel 6 Sinton, TX"
846,Ayorou,NE,75.74,clear sky,14.7308,0.9174,Hotel Amenokal
851,Le Port,RE,76.96,scattered clouds,-20.9373,55.2919,KORBEY D'OR OUEST
854,Monrovia,LR,80.24,scattered clouds,6.3005,-10.7969,Sunset Inn
859,Makasar,ID,75.25,heavy intensity rain,-5.14,119.4221,Hotel Horison Ultima Makassar
861,Sampit,ID,75.83,overcast clouds,-2.5333,112.95,Aquarius Boutique Hotel Sampit
865,Floriano,BR,79.09,scattered clouds,-6.7669,-43.0225,Hotel Maktub
873,Tomatlan,MX,77.63,overcast clouds,19.9333,-105.25,El Salvial
879,Dalby,AU,75.85,scattered clouds,-27.1833,151.2667,Kobbers Motor Inn Dalby
889,College Station,US,75.94,scattered clouds,30.628,-96.3344,Homewood Suites by Hilton College Station
895,Key Biscayne,US,76.01,few clouds,25.6937,-80.1628,"The Ritz-Carlton Key Biscayne, Miami"
905,Quatre Cocos,MU,78.1,light rain,-20.2078,57.7625,Sunrise Attitude Hotel
914,Anloga,GH,81.72,broken clouds,5.7947,0.8973,Pin Drop Hotel
915,Los Cordobas,CO,79.75,broken clouds,8.894,-76.3546,Hospedaje SyS
918,Oriximina,BR,79.7,overcast clouds,-1.7656,-55.8661,Pousada Tia Amélia
920,Harper,LR,79.84,light rain,4.375,-7.7169,Screensaver
921,Touros,BR,80.65,broken clouds,-5.1989,-35.4608,INN NEW HORIZON
924,Olinda,BR,79.79,broken clouds,-8.0089,-34.8553,Hotel Albergue de Olinda
925,Bandarbeyla,SO,75.87,clear sky,9.4942,50.8122,JABIR HOTEL
929,Tamandare,BR,77.76,scattered clouds,-8.7597,-35.1047,Pousada 100 Passos
932,Alyangula,AU,86.86,overcast clouds,-13.8483,136.4192,Groote Eylandt Lodge
936,Saint-Joseph,RE,75.56,scattered clouds,-21.3667,55.6167,"""Plantation Bed and Breakfast"
942,Mana,GF,77.38,overcast clouds,5.6592,-53.7767,LE SAMANA
943,Mumbwa,ZM,76.37,broken clouds,-14.9783,27.0619,Mumbwa Motel
944,Guanica,PR,81.91,overcast clouds,17.9716,-66.908,Copamarina Beach Resort & Spa
947,Kavaratti,IN,80.6,broken clouds,10.5669,72.642,Hotels in Lakshadweep Islands
953,Goya,AR,76.82,few clouds,-29.14,-59.2626,Apart Costanera Goya
954,Daru,PG,83.88,overcast clouds,-9.0763,143.2092,Daru Lodge
967,Kishi,NG,76.08,broken clouds,9.0833,3.85,New NCCF KISI
973,Paredon,MX,81.28,clear sky,16.0333,-93.8667,Hotel Principal Paredon
982,Norsup,VU,84.29,clear sky,-16.0667,167.3833,Nabelchel Bungalows
988,Celestun,MX,75.69,clear sky,20.8667,-90.4,Posada Lilia
989,Teluk Nibung,ID,75.38,overcast clouds,3.001,99.8164,Hotel Assyifa
1002,Manjacaze,MZ,76.71,scattered clouds,-24.7117,33.8828,Hotel Gani
1004,Yurimaguas,PE,75.2,light rain,-5.9,-76.0833,Rio Huallaga Hotel & Business Center
1005,Ambulu,ID,75.83,heavy intensity rain,-8.345,113.6058,Hotel Ambulu Jember
1008,Bakel,SN,78.19,broken clouds,14.905,-12.4568,Ablaye Diallo Bakel
1010,Yarada,IN,77.32,mist,17.65,83.2667,Vishranti
1011,Champerico,GT,86.54,clear sky,14.3,-91.9167,"Hotel y restaurante ""El Diamante"""
1015,Jacqueville,CI,84.11,scattered clouds,5.2052,-4.4146,Hotel Le Martin Pecheur
1016,Villa Bruzual,VE,82.02,scattered clouds,9.3328,-69.1208,hotel italia
1019,Teknaf,BD,75.09,broken clouds,20.8624,92.3058,Forestry Guesthouse
1021,Dom Pedro,BR,76.37,broken clouds,-4.4833,-44.45,Pousada Santa Amália
1022,Hervey Bay,AU,83.03,light rain,-25.2986,152.8535,Shelly Bay Resort
1025,Tete,MZ,80.1,few clouds,-16.1564,33.5867,Zambeze Paraíso Misterioso
1029,Lodwar,KE,80.1,broken clouds,3.1191,35.5973,Solmar Gracious Hotel
1030,Maues,BR,77.25,broken clouds,-3.3836,-57.7186,Hotel Miramar
1034,Bairiki,KI,87.8,few clouds,1.3292,172.9752,Tarawa Boutique Hotel
1042,Concordia,AR,80.78,broken clouds,-31.393,-58.0209,Palmar Hotel Casino
1043,Mtwara,TZ,77.43,light rain,-10.2667,40.1833,TIL Hotels Mtwara
1045,Kousseri,CM,76.35,overcast clouds,12.0769,15.0306,Le Pilotis
1054,Matamoros,MX,77.11,broken clouds,25.5333,-103.25,Quinta Belem
1056,Cairns,AU,92.1,scattered clouds,-16.9167,145.7667,Mantra Trilogy Cairns
1057,Banjar,ID,76.91,light rain,-8.19,114.9675,The Hamsa Resort
1061,Nuevo Progreso,MX,80.6,scattered clouds,23.1667,-97.95,Balneario Rio el Paraiso
1065,Labuhan,ID,79.41,heavy intensity rain,-6.8844,112.2051,PT PPI Lamongan Tambak C
1073,Boa Vista,BR,84.18,broken clouds,2.8197,-60.6733,Aipana Plaza Hotel
1077,Laredo,US,80.6,clear sky,27.5064,-99.5075,La Posada Hotel
1078,Aden,YE,79.5,scattered clouds,12.7794,45.0367,Sama Emirate Hotel
1087,Ponnani,IN,76.32,scattered clouds,10.767,75.9252,Rouba Residency
1090,La Romana,DO,78.53,broken clouds,18.4273,-68.9728,Casa de Campo Resort and Villas
1092,Luganville,VU,85.96,few clouds,-15.5333,167.1667,The Espiritu Hotel
1094,Mlonggo,ID,80.89,overcast clouds,-6.5333,110.7,Asia Metal Art
1096,Tondano,ID,78.89,overcast clouds,1.3038,124.9112,Villa Bella
1097,Kalmunai,LK,76.91,clear sky,7.4167,81.8167,VS Villa
1100,Macapa,BR,75.18,light rain,0.0389,-51.0664,Atalanta Hotel
1101,Gorontalo,ID,81.99,overcast clouds,0.5412,123.0595,Maqna Hotel by Prasanthi
1103,Torit,SS,75.99,broken clouds,4.4133,32.5678,Diplomat Guest House
1105,Boqueirao,BR,75.25,few clouds,-7.5,-36.1333,Hotel Chique Chique
1106,Buluang,PH,77.43,broken clouds,13.3068,123.3425,Enon Beach Resort
1111,Afonso Bezerra,BR,80.55,broken clouds,-5.4983,-36.5056,Pousada Shammah
1112,San Andres,CO,84.22,scattered clouds,12.5847,-81.7006,Hotel Arena Blanca
1120,Zaraza,VE,77.36,overcast clouds,9.3503,-65.3245,Hotel Zaraza
1122,Manokwari,ID,83.16,overcast clouds,-0.8667,134.0833,Swiss Belhotel Manokwari
1125,Pozo Colorado,PY,86.95,scattered clouds,-23.4923,-58.7972,Hospedaje la Amistad
1130,Salto,UY,80.87,scattered clouds,-31.3833,-57.9667,Gran Hotel Uruguay
1131,Manaus,BR,79.3,scattered clouds,-3.1019,-60.025,Manaus Hotéis Millennium
1133,Bryan,US,75.09,scattered clouds,30.6744,-96.37,Best Western Premier Bryan College Station
1134,Laguna De Perlas,NI,78.44,clear sky,12.3429,-83.6712,Hotel Best View
1136,Reconquista,AR,77.36,scattered clouds,-29.15,-59.65,Grand Hotel
1140,Baguanos,CU,79.09,broken clouds,20.7517,-76.0269,Magalis y William
1142,Manavalakurichi,IN,78.89,broken clouds,8.1333,77.3,Muttom beach west
1143,Grand-Lahou,CI,80.26,broken clouds,5.1367,-5.0242,Hotel Beatitude de Grand Lahou
1145,Tarakan,ID,76.5,light rain,3.3,117.6333,RedDoorz Syariah near Taman Berlabuh Tarakan
1153,Samarai,PG,83.8,overcast clouds,-10.6167,150.6667,Nuli Sapi
1154,Lamu,KE,78.89,overcast clouds,-2.2717,40.902,Lamu House
1156,Sarangani,PH,82.2,broken clouds,5.4033,125.4636,Ballistic Islet
1163,Marsh Harbour,BS,77.14,clear sky,26.5412,-77.0636,Abaco Beach Resort
1173,Kihei,US,76.84,moderate rain,20.785,-156.4656,Maui Sunset
1179,The Valley,AI,81.1,broken clouds,18.217,-63.0578,CeBlue Villas & Beach Resort
1183,Bundaberg,AU,83.21,broken clouds,-24.85,152.35,Takalvan Motel
1186,Kampot,KH,75.25,overcast clouds,10.6167,104.1833,Two Moons Hotel
1190,Rabak,SD,78.19,clear sky,13.1809,32.74,فندق ربك Rabak Hotel
1192,Aquin,HT,77.41,scattered clouds,18.2833,-73.4,Asheev Beach
1193,Popondetta,PG,88.83,broken clouds,-8.7537,148.2534,Timos Transit House
1194,Biak,ID,78.8,overcast clouds,-0.9131,122.8766,Penginapan Kim
1196,Bonthe,SL,80.02,broken clouds,7.5264,-12.505,Bonthe Holiday Village
1199,Tiarei,PF,87.82,broken clouds,-17.5333,-149.3333,Le Rocher de Tahiti
1204,Aquiraz,BR,85.21,few clouds,-3.9014,-38.3911,Pousada Rua Camurupim
1207,Alugan,PH,79.48,broken clouds,12.2188,125.4808,JM Lodge
1211,Pochutla,MX,82.22,clear sky,15.7432,-96.4661,Hotel Posada San Jose
1221,Wates,ID,75.92,overcast clouds,-8.1326,111.9541,Nur lailiyah
1236,Labuan,MY,78.96,light rain,5.2767,115.2417,Tiara Labuan Hotel
1239,Kaeo,NZ,77.32,scattered clouds,-35.1,173.7833,Bushido Lodge
1240,Morondava,MG,79.57,broken clouds,-20.2833,44.2833,La Case Bambou
1243,Siavonga,ZM,81.48,few clouds,-16.5382,28.7088,Lavongora Waterfront Lodge
1249,Seguela,CI,77.45,clear sky,7.9611,-6.6731,Hotel le Carrefour
1251,Yeppoon,AU,82.18,broken clouds,-23.1333,150.7333,Villa Mar Colina
1254,Gizo,SB,83.68,light rain,-8.103,156.8419,Imagination Island
1278,Villarrica,PY,78.1,clear sky,-25.75,-56.4333,Mansión Reljuv Tours SA
1290,Batangafo,CF,76.37,overcast clouds,7.3008,18.2833,OCHA Office
1303,Panama City,PA,84.06,scattered clouds,8.9936,-79.5197,Riande Urban Hotel
1313,Pitimbu,BR,81.19,scattered clouds,-7.4706,-34.8086,Reserva do Abiaí
1314,Cassilandia,BR,77.68,broken clouds,-19.1133,-51.7342,Delirius Motel
1316,Limbang,MY,78.91,light rain,4.75,115.0,Purnama Hotel
1323,Conde,BR,80.06,scattered clouds,-7.2597,-34.9075,Pousada Beija Flor
1325,Balikpapan,ID,79.79,moderate rain,-1.2675,116.8289,ibis Balikpapan
1326,Iquitos,PE,77.04,broken clouds,-3.7481,-73.2472,Casa Morey Hotel & Restaurant
1331,Puerto Escondido,MX,80.35,clear sky,15.85,-97.0667,Aldea del Bazar Hotel and Spa
1332,Maningrida,AU,89.55,overcast clouds,-12.0667,134.2667,Dhukurrdji Lodge
1335,Miri,MY,78.94,scattered clouds,4.4148,114.0089,"Mega Hotel, Miri"
1339,Pandan,PH,77.36,overcast clouds,14.0453,124.1694,Bonifacio Lodge
1340,Manggar,ID,77.72,heavy intensity rain,-2.8833,108.2667,Guest Hotel
1343,Galle,LK,76.75,broken clouds,6.0367,80.217,Amangalla
1347,Pouembout,NC,86.95,scattered clouds,-21.1333,164.9,Camping de Tipenga
1356,Bang Lamung,TH,76.95,few clouds,13.047,100.9289,เซอรีน แซนด์ส เฮลท์ รีสอร์ท - Serene Sands Health Resort
1357,Brokopondo,SR,77.4,overcast clouds,4.75,-55.1667,Matu Island
1362,Mazagao,BR,75.25,light rain,-0.115,-51.2894,Recanto dos Ferreiras
1365,Capitan Bado,PY,80.28,scattered clouds,-23.2667,-55.5333,Hotel Suiza
1366,Matara,LK,75.54,broken clouds,5.9485,80.5353,Amaloh Boutique Resort
1367,Ribas Do Rio Pardo,BR,78.85,clear sky,-20.4431,-53.7592,Pousada Avenida
1372,Santa Rosa,PH,78.85,broken clouds,14.3122,121.1114,Erlyn’s Sta Rosa City Home
1377,Santiago De Cuba,CU,82.02,scattered clouds,20.0247,-75.8219,Cubanacan San Felix
1393,Atambua,ID,79.61,overcast clouds,-9.1061,124.8925,Pastori 1 Jemaat Polycarpus
1398,Moree,AU,78.82,broken clouds,-29.4667,149.85,Molika Springs Motel
1407,San Pedro,PH,78.1,few clouds,14.35,121.0167,Villa Veronica Resort Private Pool
1412,Muli,MV,82.71,scattered clouds,2.9167,73.5667,Medhufushi Island Resort
1414,Bani,DO,77.86,scattered clouds,18.2833,-70.3333,Hospedaje Henriquez
1420,Moranbah,AU,84.69,few clouds,-22.0016,148.0466,Direct Hotels - Monterey Moranbah
1424,Gisborne,NZ,75.94,scattered clouds,-38.6533,178.0042,ASURE Alfresco Motor Lodge
1434,Karangampel,ID,78.06,moderate rain,-6.4622,108.4519,ROOFTOP WAG ALL
1442,Gondanglegi,ID,76.23,overcast clouds,-7.7479,112.0132,pondok pesantren mamba'ul 'ulum selo rejo
1445,Broadford,AU,75.99,overcast clouds,-37.2,145.0667,Sugarloaf Motel
1453,Guarapari,BR,76.89,scattered clouds,-20.6667,-40.4975,Hotel Porto do Sol
1454,Yendi,GH,78.4,overcast clouds,9.4427,-0.0099,Eyarro Lodge
1462,Kroya,ID,78.49,light rain,-7.6331,109.2461,RUSTANTO Fam
1467,Todos Santos,MX,79.02,overcast clouds,23.45,-110.2167,Hotel California Todos Santos
1471,Kulhudhuffushi,MV,81.52,scattered clouds,6.6221,73.07,Haajy Guest House 1
1474,Bull Savanna,JM,75.85,scattered clouds,17.8868,-77.5902,Big Red's
1476,Buin,CL,81.88,clear sky,-33.7333,-70.75,Paihuen
1486,Montero,BO,79.7,overcast clouds,-17.3333,-63.25,Residencial Pinocho
1505,Domoni,KM,79.07,few clouds,-12.2569,44.5319,Al Djadid
1506,Esmeralda,CU,76.24,overcast clouds,21.8525,-78.1169,Centro de Pioneros Exploradores
1508,Caucaia,BR,85.06,scattered clouds,-3.7361,-38.6531,M.O.S. Logística - Filial Fortaleza
1509,Victoria Point,AU,80.94,broken clouds,-27.5833,153.3,Bay Retreat Motel
1513,Sao Paulo Do Potengi,BR,82.08,broken clouds,-5.895,-35.7628,Pousada e Restaurante Carne Assada do Ari
1518,Finschhafen,PG,85.59,broken clouds,-6.6024,147.8681,Cossam Guest House
1520,Benjamin Constant,BR,77.13,overcast clouds,-4.3831,-70.0311,CASA AVALIADA
1522,Esmeraldas,BR,75.51,few clouds,-19.7625,-44.3139,Bom Será - Marcinho e Fernanda
1523,Katherine,AU,82.72,scattered clouds,-14.4667,132.2667,Pine Tree Motel
1534,Lahaina,US,76.8,light rain,20.8783,-156.6825,Lahaina Shores Beach Resort
1537,Sai Buri,TH,75.96,broken clouds,6.7013,101.6168,ร้าน​ เวดดิ้ง
1547,Saint-Paul,RE,77.09,light rain,-21.0096,55.2707,Boucan Canot
1558,Mapiripan,CO,76.44,moderate rain,2.8892,-72.1256,Monserrate
1561,Ewa Beach,US,76.95,light rain,21.3156,-158.0072,Uncle Junior Robert
1562,Port Augusta,AU,79.7,overcast clouds,-32.5,137.7667,Majestic Oasis Apartments
1571,Gabu,GW,76.53,overcast clouds,12.2833,-14.2167,Hotel karsa
1588,Waingapu,ID,80.76,light rain,-9.6567,120.2641,Pondok Wisata Elim
1596,Machiques,VE,78.22,scattered clouds,10.0644,-72.545,hotel el markes
1599,Tucuman,AR,75.2,overcast clouds,-26.8241,-65.2226,Dallas Hotel Tucuman
1601,Samana,DO,75.94,few clouds,19.2056,-69.3369,The Bannister - Hotel & Yacht Club
1603,Natagaima,CO,79.0,broken clouds,3.6206,-75.0941,Mi Hotel El Gran Palacio- Nury
1608,Hermosillo,MX,80.69,clear sky,29.0667,-110.9667,ibis Hermosillo
1615,Tabou,CI,79.86,light rain,4.423,-7.3528,hotêl doufoulougou
1635,Fuerte Olimpo,PY,80.15,broken clouds,-21.0415,-57.8738,Hospedaje DAMI
1640,Yenagoa,NG,77.72,overcast clouds,4.9247,6.2642,Aridolf Resort Wellness and Spa
1643,Benguela,AO,76.37,broken clouds,-12.5763,13.4055,Hotel Praia Morena
1644,Ciudad Bolivar,VE,81.48,broken clouds,8.1222,-63.5497,Hotel Edi
1653,Bartica,GY,77.32,overcast clouds,6.4,-58.6167,Sloth Island Nature Resort
1658,Gouyave,GD,79.57,few clouds,12.1646,-61.7296,Rumboat Retreat
1664,Limoncito,BO,76.78,overcast clouds,-18.0167,-63.4,Tom´s Hauss
1668,Lahad Datu,MY,77.23,overcast clouds,5.0268,118.327,The 27th House
1671,Tamiahua,MX,75.54,clear sky,21.2667,-97.45,Mission Of The Sun Hotel
1675,Jizan,SA,76.14,clear sky,17.3333,42.6667,شهدان. ابوالحجر
1678,Cuamba,MZ,75.96,overcast clouds,-14.8031,36.5372,Hotel Vision
1684,Luwuk,ID,81.03,light rain,-0.9516,122.7875,Hotel Santika Luwuk
1691,Homestead,US,75.99,clear sky,25.4687,-80.4776,Travelodge by Wyndham Florida City/Homestead/Everglades
1692,Puerto Madero,MX,82.6,few clouds,14.7208,-92.4215,Hospedaje madero
1704,Shagamu,NG,82.18,overcast clouds,6.8432,3.6478,Remo Majestic Hotel
1716,Piacabucu,BR,77.14,scattered clouds,-10.4056,-36.4344,Piaçabuçu News
1732,Jatiroto,ID,76.93,overcast clouds,-7.8833,111.1167,Mushola Al Huda
1738,San Carlos Del Zulia,VE,77.09,few clouds,9.0,-71.9135,Hotel El Manantial
1748,Mulatupo,PA,79.07,overcast clouds,8.9492,-77.7652,Hostal Nuevo Sasardí
1754,Nkhotakota,MW,78.37,overcast clouds,-12.9274,34.2961,Sitima Inn
1756,Quelimane,MZ,80.55,clear sky,-17.8786,36.8883,Hotel Flamingo
1761,Nuevitas,CU,76.44,overcast clouds,21.5453,-77.2644,Hotel Caonaba
1767,Kintampo,GH,76.01,broken clouds,8.0563,-1.7306,Adomaa Memorial Hotel
1779,Kilindoni,TZ,79.32,scattered clouds,-7.9139,39.6668,Bustani B&B
1785,Guapiles,CR,82.98,scattered clouds,10.2159,-83.7866,Pachira Lodge
1786,Banda Aceh,ID,78.33,overcast clouds,5.5577,95.3222,Sulthan Hotel International
1792,Dhidhdhoo,MV,81.75,few clouds,6.8833,73.1,Dhidhoo beach
1796,San Ignacio,BZ,82.54,clear sky,17.1561,-89.0714,Rainforest Haven Inn
1797,Am Timan,TD,76.41,few clouds,11.0297,20.2827,Palais du chef Canton Salamt
1802,Carepa,CO,78.58,broken clouds,7.7585,-76.6525,HOTEL EL EDÉN
1804,Banfora,BF,77.45,clear sky,10.6333,-4.7667,Residences David Hebié
1816,Saint-Georges,GD,80.28,few clouds,12.0564,-61.7485,Radisson Grenada Beach Resort
1822,Soure,BR,80.51,few clouds,-0.7167,-48.5233,Casarão da Amazônia
1831,Villa Alemana,CL,84.92,mist,-33.0422,-71.3733,Madrid Guesthouse
1840,Caico,BR,82.17,clear sky,-6.4583,-37.0978,Pousada Paraíso do Seridó
1843,Natal,BR,82.62,scattered clouds,-5.795,-35.2094,Villa Park Hotel | Natal
1846,Bandrele,YT,80.35,broken clouds,-12.9067,45.1914,Les Baobabs
1847,Weligama,LK,75.9,scattered clouds,5.9667,80.4167,Weligama Bay Resort
1848,Eruwa,NG,75.49,overcast clouds,7.5333,3.4167,Yinka Hostel
1850,Jaque,PA,78.55,overcast clouds,7.5175,-78.1703,Aventuras Jaque S.A
1861,Kapoeta,SS,79.86,broken clouds,4.7717,33.5903,Eastgate Hotel
1863,Bonoua,CI,83.82,light rain,5.2741,-3.595,Hotel Bon Samaritian
1869,Polewali,ID,82.47,moderate rain,-3.4324,119.3435,Lilianto Hotel
1870,Camapua,BR,80.74,broken clouds,-19.5314,-54.0439,Comercial Estrela
1873,Presidencia Roque Saenz Pena,AR,76.5,clear sky,-26.7852,-60.4388,Hotel Aconcagua
1876,Trairi,BR,81.37,broken clouds,-3.2778,-39.2689,janelas do mar
1877,Tagusao,PH,80.8,broken clouds,9.1924,117.8141,Toledo
1878,Carutapera,BR,78.8,few clouds,-1.195,-46.02,Lidera
1891,Mataram,ID,77.81,overcast clouds,-8.5833,116.1167,Hotel Santika Mataram
1892,Sorong,ID,82.96,overcast clouds,-0.8833,131.25,Waigo Splash Hotel
1894,Etchojoa,MX,79.29,broken clouds,26.9167,-109.6333,Cuadra RT
1897,Tchaourou,BJ,76.1,overcast clouds,8.8865,2.5975,SAFIR HOTEL
1900,Talanga,HN,75.74,broken clouds,14.4,-87.0833,Do;a Albertina Zuniga
1903,Redcliffe,AU,83.05,scattered clouds,-27.2307,153.0973,Redvue Apartments
1912,Guacimo,CR,84.78,scattered clouds,10.2104,-83.6807,Hotel Los Ríos
1920,Le Marin,MQ,79.72,few clouds,14.4721,-60.8697,Résidence des îles
1922,Butterworth,MY,79.0,few clouds,5.3991,100.3638,Cititel Penang
1925,Mahina,PF,85.77,few clouds,-17.5065,-149.489,Guest Beach Bungalow Tahiti
1932,Kapit,MY,75.79,overcast clouds,2.0167,112.9333,Hotel Meligai Kapit
1934,Sao Jose De Piranhas,BR,82.65,broken clouds,-7.1206,-38.5019,Hotel Pousada São José
1939,Angoche,MZ,75.54,scattered clouds,-16.2325,39.9086,Guest House HESADA
